2018-07-12T12:59:45.738,FE, 6, 0, 0, D,FF,BE,    42,mavlink_request_data_stream_t,req_message_rate,2,target_system,81,target_component,50,req_stream_id,2,start_stop,1,,sig ,Len,14
2018-07-12T12:59:45.738,FE, 6, 0, 0, E,FF,BE,    42,mavlink_request_data_stream_t,req_message_rate,2,target_system,81,target_component,50,req_stream_id,2,start_stop,1,,sig ,Len,14
2018-07-12T12:59:45.738,FE, 6, 0, 0, F,FF,BE,    42,mavlink_request_data_stream_t,req_message_rate,2,target_system,81,target_component,50,req_stream_id,6,start_stop,1,,sig ,Len,14
2018-07-12T12:59:45.738,FE, 6, 0, 0,10,FF,BE,    42,mavlink_request_data_stream_t,req_message_rate,2,target_system,81,target_component,50,req_stream_id,6,start_stop,1,,sig ,Len,14
2018-07-12T12:59:45.739,FE, 6, 0, 0,11,FF,BE,    42,mavlink_request_data_stream_t,req_message_rate,4,target_system,81,target_component,50,req_stream_id,10,start_stop,1,,sig ,Len,14
2018-07-12T12:59:45.739,FE, 6, 0, 0,12,FF,BE,    42,mavlink_request_data_stream_t,req_message_rate,4,target_system,81,target_component,50,req_stream_id,10,start_stop,1,,sig ,Len,14
2018-07-12T12:59:45.739,FE, 6, 0, 0,13,FF,BE,    42,mavlink_request_data_stream_t,req_message_rate,4,target_system,81,target_component,50,req_stream_id,11,start_stop,1,,sig ,Len,14
2018-07-12T12:59:45.739,FE, 6, 0, 0,14,FF,BE,    42,mavlink_request_data_stream_t,req_message_rate,4,target_system,81,target_component,50,req_stream_id,11,start_stop,1,,sig ,Len,14
2018-07-12T12:59:45.740,FE, 6, 0, 0,15,FF,BE,    42,mavlink_request_data_stream_t,req_message_rate,2,target_system,81,target_component,50,req_stream_id,12,start_stop,1,,sig ,Len,14
2018-07-12T12:59:45.740,FE, 6, 0, 0,16,FF,BE,    42,mavlink_request_data_stream_t,req_message_rate,2,target_system,81,target_component,50,req_stream_id,12,start_stop,1,,sig ,Len,14
2018-07-12T12:59:45.740,FE,1C, 0, 0,95, 1, 1,    A3,mavlink_ahrs_t,omegaIx,0.001115422,omegaIy,0.0005618504,omegaIz,-0.0009501535,accel_weight,0,renorm_val,0,error_rp,0.007785113,error_yaw,0.004565112,,sig ,Len,36
2018-07-12T12:59:45.741,FE, 3, 0, 0,96, 1, 1,    A5,mavlink_hwstatus_t,Vcc,5024,I2Cerr,0,,sig ,Len,11
2018-07-12T12:59:45.741,FE, C, 0, 0,97, 1, 1,     2,mavlink_system_time_t,time_unix_usec,315964815007000,time_boot_ms,33187,,sig ,Len,20
2018-07-12T12:59:45.741,FE,16, 0, 0,98, 1, 1,    C1,mavlink_ekf_status_report_t,velocity_variance,0,pos_horiz_variance,0.008898215,pos_vert_variance,0.01766718,compass_variance,0.003253361,terrain_alt_variance,0.04159451,flags,229,,sig ,Len,30
2018-07-12T12:59:45.741,FE,20, 0, 0,99, 1, 1,    F1,mavlink_vibration_t,time_usec,33188073,vibration_x,0.02909425,vibration_y,0.04883121,vibration_z,0.03686233,clipping_0,0,clipping_1,0,clipping_2,0,,sig ,Len,40
2018-07-12T12:59:45.741,FE,1C, 0, 0,9A, 1, 1,    21,mavlink_global_position_int_t,time_boot_ms,33487,lat,0,lon,0,alt,360,relative_alt,360,vx,4,vy,1,vz,20,hdg,8980,,sig ,Len,36
2018-07-12T12:59:45.741,FE, 6, 0, 0,17,FF,BE,    42,mavlink_request_data_stream_t,req_message_rate,2,target_system,81,target_component,50,req_stream_id,1,start_stop,1,,sig ,Len,14
2018-07-12T12:59:45.741,FE, 6, 0, 0,18,FF,BE,    42,mavlink_request_data_stream_t,req_message_rate,2,target_system,81,target_component,50,req_stream_id,1,start_stop,1,,sig ,Len,14
2018-07-12T12:59:45.741,FE,15, 0, 0,9B, 1, 1,    24,mavlink_servo_output_raw_t,time_usec,33487416,servo1_raw,1100,servo2_raw,1100,servo3_raw,1100,servo4_raw,1100,servo5_raw,0,servo6_raw,0,servo7_raw,0,servo8_raw,0,port,0,servo9_raw,0,servo10_raw,0,servo11_raw,0,servo12_raw,0,servo13_raw,0,servo14_raw,0,servo15_raw,0,servo16_raw,0,,sig ,Len,29
2018-07-12T12:59:45.741,FE,16, 0, 0,9C, 1, 1,    23,mavlink_rc_channels_raw_t,time_boot_ms,33487,chan1_raw,1488,chan2_raw,1504,chan3_raw,2016,chan4_raw,1595,chan5_raw,1146,chan6_raw,993,chan7_raw,2016,chan8_raw,1504,port,0,rssi,0,,sig ,Len,30
2018-07-12T12:59:45.741,FE,2A, 0, 0,9D, 1, 1,    41,mavlink_rc_channels_t,time_boot_ms,33487,chan1_raw,1488,chan2_raw,1504,chan3_raw,2016,chan4_raw,1595,chan5_raw,1146,chan6_raw,993,chan7_raw,2016,chan8_raw,1504,chan9_raw,0,chan10_raw,0,chan11_raw,0,chan12_raw,0,chan13_raw,0,chan14_raw,0,chan15_raw,0,chan16_raw,0,chan17_raw,0,chan18_raw,0,chancount,8,rssi,0,,sig ,Len,50
2018-07-12T12:59:45.741,FE,1C, 0, 0,9E, 1, 1,    1E,mavlink_attitude_t,time_boot_ms,33487,roll,0.05275885,pitch,-0.02025134,yaw,1.567454,rollspeed,-0.002460236,pitchspeed,-0.001774373,yawspeed,0.00106257,,sig ,Len,36
2018-07-12T12:59:45.741,FE,18, 0, 0,9F, 1, 1,    B2,mavlink_ahrs2_t,roll,0.05043171,pitch,-0.02228875,yaw,1.572946,altitude,0,lat,0,lng,0,,sig ,Len,32
2018-07-12T12:59:45.741,FE, 6, 0, 0,19,FF,BE,    42,mavlink_request_data_stream_t,req_message_rate,2,target_system,81,target_component,50,req_stream_id,3,start_stop,1,,sig ,Len,14
2018-07-12T12:59:45.741,FE, 6, 0, 0,1A,FF,BE,    42,mavlink_request_data_stream_t,req_message_rate,2,target_system,81,target_component,50,req_stream_id,3,start_stop,1,,sig ,Len,14
2018-07-12T12:59:45.741,FE,28, 0, 0,A0, 1, 1,    B6,mavlink_ahrs3_t,roll,0.05275885,pitch,-0.02025134,yaw,1.567454,altitude,0,lat,0,lng,0,v1,0,v2,0,v3,0,v4,0,,sig ,Len,48
2018-07-12T12:59:45.741,FE,1A, 0, 0,A1, 1, 1,    1B,mavlink_raw_imu_t,time_usec,33727493,xacc,-19,yacc,-55,zacc,-951,xgyro,-2,ygyro,-1,zgyro,0,xmag,5,ymag,-181,zmag,206,,sig ,Len,34
2018-07-12T12:59:45.741,FE,16, 0, 0,A2, 1, 1,    74,mavlink_scaled_imu2_t,time_boot_ms,33727,xacc,5,yacc,35,zacc,-869,xgyro,-5,ygyro,-2,zgyro,4,xmag,-178,ymag,-228,zmag,321,,sig ,Len,30
2018-07-12T12:59:45.741,FE, E, 0, 0,A3, 1, 1,    1D,mavlink_scaled_pressure_t,time_boot_ms,33727,press_abs,985.5163,press_diff,0.01164063,temperature,3052,,sig ,Len,22
2018-07-12T12:59:45.742,FE,1F, 0, 0,A4, 1, 1,     1,mavlink_sys_status_t,onboard_control_sensors_present,23199087,onboard_control_sensors_enabled,56728943,onboard_control_sensors_health,23198767,load,384,voltage_battery,0,current_battery,-1,drop_rate_comm,0,errors_comm,0,errors_count1,0,errors_count2,0,errors_count3,0,errors_count4,0,battery_remaining,255,,sig ,Len,39
2018-07-12T12:59:45.742,FE, 6, 0, 0,A5, 1, 1,    7D,mavlink_power_status_t,Vcc,4999,Vservo,24,flags,1,,sig ,Len,14
2018-07-12T12:59:45.742,FE, 4, 0, 0,A6, 1, 1,    98,mavlink_meminfo_t,brkval,0,freemem,43712,freemem32,0,,sig ,Len,12
2018-07-12T12:59:45.742,FE, 2, 0, 0,A7, 1, 1,    2A,mavlink_mission_current_t,seq,0,,sig ,Len,10
2018-07-12T12:59:45.742,FE,1E, 0, 0,A8, 1, 1,    18,mavlink_gps_raw_int_t,time_usec,0,lat,0,lon,0,alt,-17000,eph,9999,epv,9999,vel,0,cog,0,fix_type,1,satellites_visible,0,alt_ellipsoid,0,h_acc,0,v_acc,0,vel_acc,0,hdg_acc,0,,sig ,Len,38
2018-07-12T12:59:45.742,FE,1A, 0, 0,A9, 1, 1,    3E,mavlink_nav_controller_output_t,nav_roll,3.023494,nav_pitch,-1.161931,alt_error,-0.384721,aspd_error,0,xtrack_error,0,nav_bearing,89,target_bearing,0,wp_dist,0,,sig ,Len,34
2018-07-12T12:59:45.742,FE,14, 0, 0,AA, 1, 1,    4A,mavlink_vfr_hud_t,airspeed,0,groundspeed,0.05128489,alt,0.38,climb,0.21,heading,89,throttle,0,,sig ,Len,28
2018-07-12T12:59:45.742,FE,1C, 0, 0,AB, 1, 1,    A3,mavlink_ahrs_t,omegaIx,0.001136368,omegaIy,0.0005677054,omegaIz,-0.0009307828,accel_weight,0,renorm_val,0,error_rp,0.008327815,error_yaw,0.004373502,,sig ,Len,36
2018-07-12T12:59:45.742,FE, 3, 0, 0,AC, 1, 1,    A5,mavlink_hwstatus_t,Vcc,4999,I2Cerr,0,,sig ,Len,11
2018-07-12T12:59:45.742,FE, C, 0, 0,AD, 1, 1,     2,mavlink_system_time_t,time_unix_usec,315964815547000,time_boot_ms,33727,,sig ,Len,20
2018-07-12T12:59:45.742,FE,16, 0, 0,AE, 1, 1,    C1,mavlink_ekf_status_report_t,velocity_variance,0,pos_horiz_variance,0.009032869,pos_vert_variance,0.02148431,compass_variance,0.001836361,terrain_alt_variance,0.04998937,flags,229,,sig ,Len,30
2018-07-12T12:59:45.742,FE,20, 0, 0,AF, 1, 1,    F1,mavlink_vibration_t,time_usec,33728117,vibration_x,0.02479184,vibration_y,0.03633558,vibration_z,0.03800177,clipping_0,0,clipping_1,0,clipping_2,0,,sig ,Len,40
2018-07-12T12:59:45.811,FE, 6, 0, 0,1B,FF,BE,    42,mavlink_request_data_stream_t,req_message_rate,2,target_system,1,target_component,1,req_stream_id,2,start_stop,1,,sig ,Len,14
2018-07-12T12:59:45.811,FE, 6, 0, 0,1C,FF,BE,    42,mavlink_request_data_stream_t,req_message_rate,2,target_system,1,target_component,1,req_stream_id,2,start_stop,1,,sig ,Len,14
2018-07-12T12:59:45.812,FE, 6, 0, 0,1D,FF,BE,    42,mavlink_request_data_stream_t,req_message_rate,2,target_system,1,target_component,1,req_stream_id,6,start_stop,1,,sig ,Len,14
2018-07-12T12:59:45.812,FE, 6, 0, 0,1E,FF,BE,    42,mavlink_request_data_stream_t,req_message_rate,2,target_system,1,target_component,1,req_stream_id,6,start_stop,1,,sig ,Len,14
2018-07-12T12:59:45.812,FE, 6, 0, 0,1F,FF,BE,    42,mavlink_request_data_stream_t,req_message_rate,4,target_system,1,target_component,1,req_stream_id,10,start_stop,1,,sig ,Len,14
2018-07-12T12:59:45.813,FE, 6, 0, 0,20,FF,BE,    42,mavlink_request_data_stream_t,req_message_rate,4,target_system,1,target_component,1,req_stream_id,10,start_stop,1,,sig ,Len,14
2018-07-12T12:59:45.813,FE, 6, 0, 0,21,FF,BE,    42,mavlink_request_data_stream_t,req_message_rate,4,target_system,1,target_component,1,req_stream_id,11,start_stop,1,,sig ,Len,14
2018-07-12T12:59:45.813,FE, 6, 0, 0,22,FF,BE,    42,mavlink_request_data_stream_t,req_message_rate,4,target_system,1,target_component,1,req_stream_id,11,start_stop,1,,sig ,Len,14
2018-07-12T12:59:45.813,FE, 6, 0, 0,23,FF,BE,    42,mavlink_request_data_stream_t,req_message_rate,2,target_system,1,target_component,1,req_stream_id,12,start_stop,1,,sig ,Len,14
2018-07-12T12:59:45.814,FE, 6, 0, 0,24,FF,BE,    42,mavlink_request_data_stream_t,req_message_rate,2,target_system,1,target_component,1,req_stream_id,12,start_stop,1,,sig ,Len,14
2018-07-12T12:59:45.814,FE, 6, 0, 0,25,FF,BE,    42,mavlink_request_data_stream_t,req_message_rate,2,target_system,1,target_component,1,req_stream_id,1,start_stop,1,,sig ,Len,14
2018-07-12T12:59:45.814,FE, 6, 0, 0,26,FF,BE,    42,mavlink_request_data_stream_t,req_message_rate,2,target_system,1,target_component,1,req_stream_id,1,start_stop,1,,sig ,Len,14
2018-07-12T12:59:45.814,FE, 6, 0, 0,27,FF,BE,    42,mavlink_request_data_stream_t,req_message_rate,2,target_system,1,target_component,1,req_stream_id,3,start_stop,1,,sig ,Len,14
2018-07-12T12:59:45.815,FE, 6, 0, 0,28,FF,BE,    42,mavlink_request_data_stream_t,req_message_rate,2,target_system,1,target_component,1,req_stream_id,3,start_stop,1,,sig ,Len,14
2018-07-12T12:59:45.981,FE, 9, 0, 0,B0, 1, 1,     0,mavlink_heartbeat_t,custom_mode,0,type,2,autopilot,3,base_mode,81,system_status,3,mavlink_version,3,,sig ,Len,17
2018-07-12T12:59:45.984,FE,1C, 0, 0,B1, 1, 1,    21,mavlink_global_position_int_t,time_boot_ms,34027,lat,0,lon,0,alt,400,relative_alt,400,vx,4,vy,1,vz,21,hdg,8981,,sig ,Len,36
2018-07-12T12:59:45.984,FE,15, 0, 0,B2, 1, 1,    24,mavlink_servo_output_raw_t,time_usec,34027499,servo1_raw,1100,servo2_raw,1100,servo3_raw,1100,servo4_raw,1100,servo5_raw,0,servo6_raw,0,servo7_raw,0,servo8_raw,0,port,0,servo9_raw,0,servo10_raw,0,servo11_raw,0,servo12_raw,0,servo13_raw,0,servo14_raw,0,servo15_raw,0,servo16_raw,0,,sig ,Len,29
2018-07-12T12:59:45.984,FE,16, 0, 0,B3, 1, 1,    23,mavlink_rc_channels_raw_t,time_boot_ms,34027,chan1_raw,1488,chan2_raw,1504,chan3_raw,2016,chan4_raw,1596,chan5_raw,1146,chan6_raw,992,chan7_raw,2017,chan8_raw,1503,port,0,rssi,0,,sig ,Len,30
2018-07-12T12:59:45.984,FE,2A, 0, 0,B4, 1, 1,    41,mavlink_rc_channels_t,time_boot_ms,34027,chan1_raw,1488,chan2_raw,1504,chan3_raw,2016,chan4_raw,1596,chan5_raw,1146,chan6_raw,992,chan7_raw,2017,chan8_raw,1503,chan9_raw,0,chan10_raw,0,chan11_raw,0,chan12_raw,0,chan13_raw,0,chan14_raw,0,chan15_raw,0,chan16_raw,0,chan17_raw,0,chan18_raw,0,chancount,8,rssi,0,,sig ,Len,50
2018-07-12T12:59:45.984,FE,1C, 0, 0,B5, 1, 1,    1E,mavlink_attitude_t,time_boot_ms,34027,roll,0.0527178,pitch,-0.02032001,yaw,1.567583,rollspeed,-0.001795432,pitchspeed,-0.001338108,yawspeed,0.0008918636,,sig ,Len,36
2018-07-12T12:59:45.984,FE,18, 0, 0,B6, 1, 1,    B2,mavlink_ahrs2_t,roll,0.05022464,pitch,-0.0224659,yaw,1.573183,altitude,0,lat,0,lng,0,,sig ,Len,32
2018-07-12T12:59:45.984,FE,28, 0, 0,B7, 1, 1,    B6,mavlink_ahrs3_t,roll,0.0527178,pitch,-0.02032001,yaw,1.567583,altitude,0,lat,0,lng,0,v1,0,v2,0,v3,0,v4,0,,sig ,Len,48
2018-07-12T12:59:45.984,FE,1A, 0, 0,B8, 1, 1,    1B,mavlink_raw_imu_t,time_usec,34267418,xacc,-19,yacc,-55,zacc,-951,xgyro,-1,ygyro,0,zgyro,1,xmag,3,ymag,-183,zmag,205,,sig ,Len,34
2018-07-12T12:59:45.984,FE,16, 0, 0,B9, 1, 1,    74,mavlink_scaled_imu2_t,time_boot_ms,34267,xacc,11,yacc,37,zacc,-873,xgyro,1,ygyro,3,zgyro,1,xmag,-177,ymag,-231,zmag,320,,sig ,Len,30
2018-07-12T12:59:45.984,FE, E, 0, 0,BA, 1, 1,    1D,mavlink_scaled_pressure_t,time_boot_ms,34267,press_abs,985.5164,press_diff,0.01171875,temperature,3056,,sig ,Len,22
2018-07-12T12:59:45.984,FE,2A, 0, 0,BB, 1, 1,    96,mavlink_sensor_offsets_t,mag_declination,0,raw_press,98551,raw_temp,3056,gyro_cal_x,0.01400944,gyro_cal_y,0.03285719,gyro_cal_z,-0.006433681,accel_cal_x,0,accel_cal_y,0,accel_cal_z,0,mag_ofs_x,0,mag_ofs_y,0,mag_ofs_z,0,,sig ,Len,50
2018-07-12T12:59:45.984,FE,1F, 0, 0,BC, 1, 1,     1,mavlink_sys_status_t,onboard_control_sensors_present,23199087,onboard_control_sensors_enabled,56728943,onboard_control_sensors_health,23198767,load,358,voltage_battery,0,current_battery,-1,drop_rate_comm,0,errors_comm,0,errors_count1,0,errors_count2,0,errors_count3,0,errors_count4,0,battery_remaining,255,,sig ,Len,39
2018-07-12T12:59:45.984,FE, 6, 0, 0,BD, 1, 1,    7D,mavlink_power_status_t,Vcc,5025,Vservo,24,flags,1,,sig ,Len,14
2018-07-12T12:59:45.984,FE, 4, 0, 0,BE, 1, 1,    98,mavlink_meminfo_t,brkval,0,freemem,43712,freemem32,0,,sig ,Len,12
2018-07-12T12:59:45.984,FE, 2, 0, 0,BF, 1, 1,    2A,mavlink_mission_current_t,seq,0,,sig ,Len,10
2018-07-12T12:59:45.984,FE,1E, 0, 0,C0, 1, 1,    18,mavlink_gps_raw_int_t,time_usec,0,lat,0,lon,0,alt,-17000,eph,9999,epv,9999,vel,0,cog,0,fix_type,1,satellites_visible,0,alt_ellipsoid,0,h_acc,0,v_acc,0,vel_acc,0,hdg_acc,0,,sig ,Len,38
2018-07-12T12:59:45.984,FE,1A, 0, 0,C1, 1, 1,    3E,mavlink_nav_controller_output_t,nav_roll,3.021202,nav_pitch,-1.162223,alt_error,-0.4193221,aspd_error,0,xtrack_error,0,nav_bearing,89,target_bearing,0,wp_dist,0,,sig ,Len,34
2018-07-12T12:59:46.002,FE,14, 0, 0,C2, 1, 1,    4A,mavlink_vfr_hud_t,airspeed,0,groundspeed,0.05112714,alt,0.41,climb,0.21,heading,89,throttle,0,,sig ,Len,28
2018-07-12T12:59:46.002,FE,1C, 0, 0,C3, 1, 1,    A3,mavlink_ahrs_t,omegaIx,0.001160392,omegaIy,0.0005756434,omegaIz,-0.0009376425,accel_weight,0,renorm_val,0,error_rp,0.008568907,error_yaw,0.003011622,,sig ,Len,36
2018-07-12T12:59:46.002,FE, 3, 0, 0,C4, 1, 1,    A5,mavlink_hwstatus_t,Vcc,5101,I2Cerr,0,,sig ,Len,11
2018-07-12T12:59:46.002,FE, C, 0, 0,C5, 1, 1,     2,mavlink_system_time_t,time_unix_usec,315964816087000,time_boot_ms,34267,,sig ,Len,20
2018-07-12T12:59:46.077,FE, 9, 0, 0,29,FF,BE,     0,mavlink_heartbeat_t,custom_mode,0,type,6,autopilot,8,base_mode,0,system_status,0,mavlink_version,3,,sig ,Len,17
2018-07-12T12:59:46.130,FE,16, 0, 0,C6, 1, 1,    C1,mavlink_ekf_status_report_t,velocity_variance,0,pos_horiz_variance,0.009136291,pos_vert_variance,0.03400766,compass_variance,0.004517242,terrain_alt_variance,0.05128209,flags,229,,sig ,Len,30
2018-07-12T12:59:46.146,FE,20, 0, 0,C7, 1, 1,    F1,mavlink_vibration_t,time_usec,34268112,vibration_x,0.02605931,vibration_y,0.04708882,vibration_z,0.03589734,clipping_0,0,clipping_1,0,clipping_2,0,,sig ,Len,40
2018-07-12T12:59:46.162,FE, 9, 0, 0,E1,33,44,    A6,mavlink_radio_t,rxerrors,915,fixed,666,rssi,170,remrssi,176,txbuf,100,noise,37,remnoise,32,,sig ,Len,17
2018-07-12T12:59:46.163,FE, 9, 0, 0,E1,33,44,    6D,mavlink_radio_status_t,rxerrors,915,fixed,666,rssi,170,remrssi,176,txbuf,100,noise,37,remnoise,32,,sig ,Len,17
2018-07-12T12:59:46.258,FE,1C, 0, 0,C8, 1, 1,    21,mavlink_global_position_int_t,time_boot_ms,34567,lat,0,lon,0,alt,420,relative_alt,420,vx,4,vy,1,vz,21,hdg,8981,,sig ,Len,36
2018-07-12T12:59:46.274,FE,15, 0, 0,C9, 1, 1,    24,mavlink_servo_output_raw_t,time_usec,34567436,servo1_raw,1100,servo2_raw,1100,servo3_raw,1100,servo4_raw,1100,servo5_raw,0,servo6_raw,0,servo7_raw,0,servo8_raw,0,port,0,servo9_raw,0,servo10_raw,0,servo11_raw,0,servo12_raw,0,servo13_raw,0,servo14_raw,0,servo15_raw,0,servo16_raw,0,,sig ,Len,29
2018-07-12T12:59:46.370,FE,16, 0, 0,CA, 1, 1,    23,mavlink_rc_channels_raw_t,time_boot_ms,34567,chan1_raw,1488,chan2_raw,1505,chan3_raw,995,chan4_raw,1886,chan5_raw,1147,chan6_raw,992,chan7_raw,2016,chan8_raw,1504,port,0,rssi,0,,sig ,Len,30
2018-07-12T12:59:46.386,FE,2A, 0, 0,CB, 1, 1,    41,mavlink_rc_channels_t,time_boot_ms,34567,chan1_raw,1488,chan2_raw,1505,chan3_raw,995,chan4_raw,1886,chan5_raw,1147,chan6_raw,992,chan7_raw,2016,chan8_raw,1504,chan9_raw,0,chan10_raw,0,chan11_raw,0,chan12_raw,0,chan13_raw,0,chan14_raw,0,chan15_raw,0,chan16_raw,0,chan17_raw,0,chan18_raw,0,chancount,8,rssi,0,,sig ,Len,50
2018-07-12T12:59:46.494,FE,1C, 0, 0,CC, 1, 1,    1E,mavlink_attitude_t,time_boot_ms,34567,roll,0.05273248,pitch,-0.02028498,yaw,1.567612,rollspeed,-0.002046236,pitchspeed,-0.00118619,yawspeed,0.001118916,,sig ,Len,36
2018-07-12T12:59:46.612,FE,18, 0, 0,CD, 1, 1,    B2,mavlink_ahrs2_t,roll,0.04978275,pitch,-0.02235389,yaw,1.573663,altitude,0,lat,0,lng,0,,sig ,Len,32
2018-07-12T12:59:46.612,FE,28, 0, 0,CE, 1, 1,    B6,mavlink_ahrs3_t,roll,0.05273248,pitch,-0.02028498,yaw,1.567612,altitude,0,lat,0,lng,0,v1,0,v2,0,v3,0,v4,0,,sig ,Len,48
2018-07-12T12:59:46.654,FE,1A, 0, 0,CF, 1, 1,    1B,mavlink_raw_imu_t,time_usec,34807452,xacc,-19,yacc,-56,zacc,-950,xgyro,-1,ygyro,0,zgyro,0,xmag,4,ymag,-184,zmag,204,,sig ,Len,34
2018-07-12T12:59:46.654,FE,16, 0, 0,D0, 1, 1,    74,mavlink_scaled_imu2_t,time_boot_ms,34807,xacc,8,yacc,35,zacc,-870,xgyro,-3,ygyro,-4,zgyro,0,xmag,-176,ymag,-236,zmag,318,,sig ,Len,30
2018-07-12T12:59:46.654,FE, E, 0, 0,D1, 1, 1,    1D,mavlink_scaled_pressure_t,time_boot_ms,34807,press_abs,985.5037,press_diff,-0.001015625,temperature,3061,,sig ,Len,22
2018-07-12T12:59:46.670,FE,1F, 0, 0,D2, 1, 1,     1,mavlink_sys_status_t,onboard_control_sensors_present,23199087,onboard_control_sensors_enabled,56728943,onboard_control_sensors_health,23198767,load,401,voltage_battery,0,current_battery,-1,drop_rate_comm,0,errors_comm,0,errors_count1,0,errors_count2,0,errors_count3,0,errors_count4,0,battery_remaining,255,,sig ,Len,39
2018-07-12T12:59:46.698,FE, 6, 0, 0,D3, 1, 1,    7D,mavlink_power_status_t,Vcc,4983,Vservo,26,flags,1,,sig ,Len,14
2018-07-12T12:59:46.698,FE, 4, 0, 0,D4, 1, 1,    98,mavlink_meminfo_t,brkval,0,freemem,43712,freemem32,0,,sig ,Len,12
2018-07-12T12:59:46.698,FE, 2, 0, 0,D5, 1, 1,    2A,mavlink_mission_current_t,seq,0,,sig ,Len,10
2018-07-12T12:59:46.698,FE,1E, 0, 0,D6, 1, 1,    18,mavlink_gps_raw_int_t,time_usec,0,lat,0,lon,0,alt,-17000,eph,9999,epv,9999,vel,0,cog,0,fix_type,1,satellites_visible,0,alt_ellipsoid,0,h_acc,0,v_acc,0,vel_acc,0,hdg_acc,0,,sig ,Len,38
2018-07-12T12:59:46.729,FE,1A, 0, 0,D7, 1, 1,    3E,mavlink_nav_controller_output_t,nav_roll,3.023665,nav_pitch,-1.160834,alt_error,-0.4360247,aspd_error,0,xtrack_error,0,nav_bearing,89,target_bearing,0,wp_dist,0,,sig ,Len,34
2018-07-12T12:59:46.729,FE,14, 0, 0,D8, 1, 1,    4A,mavlink_vfr_hud_t,airspeed,0,groundspeed,0.05105814,alt,0.43,climb,0.22,heading,89,throttle,0,,sig ,Len,28
2018-07-12T12:59:46.856,FE,1C, 0, 0,D9, 1, 1,    A3,mavlink_ahrs_t,omegaIx,0.001181718,omegaIy,0.0005820431,omegaIz,-0.0009457817,accel_weight,0,renorm_val,0,error_rp,0.008826938,error_yaw,0.004827581,,sig ,Len,36
2018-07-12T12:59:46.856,FE, 3, 0, 0,DA, 1, 1,    A5,mavlink_hwstatus_t,Vcc,4983,I2Cerr,0,,sig ,Len,11
2018-07-12T12:59:46.856,FE, C, 0, 0,DB, 1, 1,     2,mavlink_system_time_t,time_unix_usec,315964816627000,time_boot_ms,34807,,sig ,Len,20
2018-07-12T12:59:46.856,FE,16, 0, 0,DC, 1, 1,    C1,mavlink_ekf_status_report_t,velocity_variance,0,pos_horiz_variance,0.009197994,pos_vert_variance,0.04153858,compass_variance,0.01265065,terrain_alt_variance,0.04860214,flags,229,,sig ,Len,30
2018-07-12T12:59:46.898,FE,20, 0, 0,DD, 1, 1,    F1,mavlink_vibration_t,time_usec,34808035,vibration_x,0.02493839,vibration_y,0.03375857,vibration_z,0.03930465,clipping_0,0,clipping_1,0,clipping_2,0,,sig ,Len,40
2018-07-12T12:59:46.898,FE,1C, 0, 0,DE, 1, 1,    1E,mavlink_attitude_t,time_boot_ms,34847,roll,0.05277837,pitch,-0.02023697,yaw,1.567619,rollspeed,-0.00163879,pitchspeed,-0.0003978405,yawspeed,0.001109442,,sig ,Len,36
2018-07-12T12:59:46.898,FE,18, 0, 0,DF, 1, 1,    B2,mavlink_ahrs2_t,roll,0.04959799,pitch,-0.02220326,yaw,1.573759,altitude,0,lat,0,lng,0,,sig ,Len,32
2018-07-12T12:59:46.925,FE,28, 0, 0,E0, 1, 1,    B6,mavlink_ahrs3_t,roll,0.05277837,pitch,-0.02023697,yaw,1.567619,altitude,0,lat,0,lng,0,v1,0,v2,0,v3,0,v4,0,,sig ,Len,48
2018-07-12T12:59:46.925,FE, 9, 0, 0,E1, 1, 1,     0,mavlink_heartbeat_t,custom_mode,0,type,2,autopilot,3,base_mode,81,system_status,3,mavlink_version,3,,sig ,Len,17
2018-07-12T12:59:46.925,FE,33, 0, 0,2A,FF,BE,    FD,mavlink_statustext_t,severity,6,text,Mission Planner 1.0.0.0,,sig ,Len,59
2018-07-12T12:59:46.925,FD,18, 1, 0,2B,FF,BE,    FD,mavlink_statustext_t,severity,6,text,Mission Planner 1.0.0.0,,sig MctWQ3AgCtn7IwES3A==,Len,49
2018-07-12T12:59:46.926,FE,14, 0, 0,E2, 1, 1,    4A,mavlink_vfr_hud_t,airspeed,0,groundspeed,0.05106295,alt,0.44,climb,0.22,heading,89,throttle,0,,sig ,Len,28
2018-07-12T12:59:46.966,FE,1C, 0, 0,E3, 1, 1,    21,mavlink_global_position_int_t,time_boot_ms,35107,lat,0,lon,0,alt,440,relative_alt,440,vx,4,vy,2,vz,22,hdg,8981,,sig ,Len,36
2018-07-12T12:59:46.966,FE,15, 0, 0,E4, 1, 1,    24,mavlink_servo_output_raw_t,time_usec,35107438,servo1_raw,1100,servo2_raw,1100,servo3_raw,1100,servo4_raw,1100,servo5_raw,0,servo6_raw,0,servo7_raw,0,servo8_raw,0,port,0,servo9_raw,0,servo10_raw,0,servo11_raw,0,servo12_raw,0,servo13_raw,0,servo14_raw,0,servo15_raw,0,servo16_raw,0,,sig ,Len,29
2018-07-12T12:59:47.002,FE, 9, 0, 0,2C,FF,BE,     0,mavlink_heartbeat_t,custom_mode,0,type,6,autopilot,8,base_mode,0,system_status,0,mavlink_version,3,,sig ,Len,17
2018-07-12T12:59:47.063,FE,16, 0, 0,E5, 1, 1,    23,mavlink_rc_channels_raw_t,time_boot_ms,35107,chan1_raw,1488,chan2_raw,1504,chan3_raw,996,chan4_raw,2016,chan5_raw,1146,chan6_raw,993,chan7_raw,2016,chan8_raw,1504,port,0,rssi,0,,sig ,Len,30
2018-07-12T12:59:47.079,FE,2A, 0, 0,E6, 1, 1,    41,mavlink_rc_channels_t,time_boot_ms,35107,chan1_raw,1488,chan2_raw,1504,chan3_raw,996,chan4_raw,2016,chan5_raw,1146,chan6_raw,993,chan7_raw,2016,chan8_raw,1504,chan9_raw,0,chan10_raw,0,chan11_raw,0,chan12_raw,0,chan13_raw,0,chan14_raw,0,chan15_raw,0,chan16_raw,0,chan17_raw,0,chan18_raw,0,chancount,8,rssi,0,,sig ,Len,50
2018-07-12T12:59:47.125,FE,1C, 0, 0,E7, 1, 1,    1E,mavlink_attitude_t,time_boot_ms,35127,roll,0.05278521,pitch,-0.02026091,yaw,1.567517,rollspeed,-0.001453585,pitchspeed,-0.0008515115,yawspeed,0.0006219638,,sig ,Len,36
2018-07-12T12:59:47.125,FE,18, 0, 0,E8, 1, 1,    B2,mavlink_ahrs2_t,roll,0.04949448,pitch,-0.02209269,yaw,1.573907,altitude,0,lat,0,lng,0,,sig ,Len,32
2018-07-12T12:59:47.125,FE,28, 0, 0,E9, 1, 1,    B6,mavlink_ahrs3_t,roll,0.05278521,pitch,-0.02026091,yaw,1.567517,altitude,0,lat,0,lng,0,v1,0,v2,0,v3,0,v4,0,,sig ,Len,48
2018-07-12T12:59:47.151,FE,1A, 0, 0,EA, 1, 1,    1B,mavlink_raw_imu_t,time_usec,35347455,xacc,-17,yacc,-56,zacc,-949,xgyro,-2,ygyro,-1,zgyro,0,xmag,4,ymag,-184,zmag,205,,sig ,Len,34
2018-07-12T12:59:47.151,FE,16, 0, 0,EB, 1, 1,    74,mavlink_scaled_imu2_t,time_boot_ms,35347,xacc,14,yacc,30,zacc,-872,xgyro,-8,ygyro,-2,zgyro,-8,xmag,-179,ymag,-222,zmag,322,,sig ,Len,30
2018-07-12T12:59:47.151,FE, E, 0, 0,EC, 1, 1,    1D,mavlink_scaled_pressure_t,time_boot_ms,35347,press_abs,985.4948,press_diff,-0.00984375,temperature,3064,,sig ,Len,22
2018-07-12T12:59:47.216,FE, 9, 0, 0,E2,33,44,    A6,mavlink_radio_t,rxerrors,915,fixed,666,rssi,172,remrssi,176,txbuf,100,noise,35,remnoise,32,,sig ,Len,17
2018-07-12T12:59:47.216,FE, 9, 0, 0,E2,33,44,    6D,mavlink_radio_status_t,rxerrors,915,fixed,666,rssi,172,remrssi,176,txbuf,100,noise,35,remnoise,32,,sig ,Len,17
2018-07-12T12:59:47.264,FE,1F, 0, 0,ED, 1, 1,     1,mavlink_sys_status_t,onboard_control_sensors_present,23199087,onboard_control_sensors_enabled,56728943,onboard_control_sensors_health,23198767,load,364,voltage_battery,0,current_battery,-1,drop_rate_comm,0,errors_comm,0,errors_count1,0,errors_count2,0,errors_count3,0,errors_count4,0,battery_remaining,255,,sig ,Len,39
2018-07-12T12:59:47.264,FE, 6, 0, 0,EE, 1, 1,    7D,mavlink_power_status_t,Vcc,4987,Vservo,24,flags,1,,sig ,Len,14
2018-07-12T12:59:47.297,FE, 4, 0, 0,EF, 1, 1,    98,mavlink_meminfo_t,brkval,0,freemem,43712,freemem32,0,,sig ,Len,12
2018-07-12T12:59:47.297,FE, 2, 0, 0,F0, 1, 1,    2A,mavlink_mission_current_t,seq,0,,sig ,Len,10
2018-07-12T12:59:47.299,FE,1E, 0, 0,F1, 1, 1,    18,mavlink_gps_raw_int_t,time_usec,0,lat,0,lon,0,alt,-17000,eph,9999,epv,9999,vel,0,cog,0,fix_type,1,satellites_visible,0,alt_ellipsoid,0,h_acc,0,v_acc,0,vel_acc,0,hdg_acc,0,,sig ,Len,38
2018-07-12T12:59:47.315,FE,1A, 0, 0,F2, 1, 1,    3E,mavlink_nav_controller_output_t,nav_roll,3.024156,nav_pitch,-1.162575,alt_error,-0.4503372,aspd_error,0,xtrack_error,0,nav_bearing,89,target_bearing,0,wp_dist,0,,sig ,Len,34
2018-07-12T12:59:47.331,FE,1C, 0, 0,F3, 1, 1,    A3,mavlink_ahrs_t,omegaIx,0.001191945,omegaIy,0.0005848479,omegaIz,-0.0009403357,accel_weight,0,renorm_val,0,error_rp,0.009211065,error_yaw,0.003873133,,sig ,Len,36
2018-07-12T12:59:47.347,FE, 3, 0, 0,F4, 1, 1,    A5,mavlink_hwstatus_t,Vcc,4987,I2Cerr,0,,sig ,Len,11
2018-07-12T12:59:47.347,FE, C, 0, 0,F5, 1, 1,     2,mavlink_system_time_t,time_unix_usec,315964817167000,time_boot_ms,35347,,sig ,Len,20
2018-07-12T12:59:47.347,FE,16, 0, 0,F6, 1, 1,    C1,mavlink_ekf_status_report_t,velocity_variance,0,pos_horiz_variance,0.009247512,pos_vert_variance,0.02323217,compass_variance,0.0004230345,terrain_alt_variance,0.04658124,flags,229,,sig ,Len,30
2018-07-12T12:59:47.389,FE,20, 0, 0,F7, 1, 1,    F1,mavlink_vibration_t,time_usec,35348065,vibration_x,0.02537521,vibration_y,0.05067573,vibration_z,0.03833038,clipping_0,0,clipping_1,0,clipping_2,0,,sig ,Len,40
2018-07-12T12:59:47.389,FE,14, 0, 0,F8, 1, 1,    4A,mavlink_vfr_hud_t,airspeed,0,groundspeed,0.05098481,alt,0.45,climb,0.22,heading,89,throttle,0,,sig ,Len,28
2018-07-12T12:59:47.389,FE,1C, 0, 0,F9, 1, 1,    1E,mavlink_attitude_t,time_boot_ms,35407,roll,0.0527683,pitch,-0.02027317,yaw,1.567428,rollspeed,-0.002135287,pitchspeed,-0.0006975846,yawspeed,0.001139174,,sig ,Len,36
2018-07-12T12:59:47.432,FE,18, 0, 0,FA, 1, 1,    B2,mavlink_ahrs2_t,roll,0.04937927,pitch,-0.02219725,yaw,1.573995,altitude,0,lat,0,lng,0,,sig ,Len,32
2018-07-12T12:59:47.432,FE,28, 0, 0,FB, 1, 1,    B6,mavlink_ahrs3_t,roll,0.0527683,pitch,-0.02027317,yaw,1.567428,altitude,0,lat,0,lng,0,v1,0,v2,0,v3,0,v4,0,,sig ,Len,48
2018-07-12T12:59:47.448,FE,1C, 0, 0,FC, 1, 1,    21,mavlink_global_position_int_t,time_boot_ms,35647,lat,0,lon,0,alt,460,relative_alt,460,vx,4,vy,2,vz,22,hdg,8980,,sig ,Len,36
2018-07-12T12:59:47.464,FE,15, 0, 0,FD, 1, 1,    24,mavlink_servo_output_raw_t,time_usec,35647393,servo1_raw,1100,servo2_raw,1100,servo3_raw,1100,servo4_raw,1100,servo5_raw,0,servo6_raw,0,servo7_raw,0,servo8_raw,0,port,0,servo9_raw,0,servo10_raw,0,servo11_raw,0,servo12_raw,0,servo13_raw,0,servo14_raw,0,servo15_raw,0,servo16_raw,0,,sig ,Len,29
2018-07-12T12:59:47.464,FE,16, 0, 0,FE, 1, 1,    23,mavlink_rc_channels_raw_t,time_boot_ms,35647,chan1_raw,1490,chan2_raw,1504,chan3_raw,995,chan4_raw,1593,chan5_raw,1146,chan6_raw,992,chan7_raw,2017,chan8_raw,1504,port,0,rssi,0,,sig ,Len,30
2018-07-12T12:59:47.507,FE,2A, 0, 0,FF, 1, 1,    41,mavlink_rc_channels_t,time_boot_ms,35647,chan1_raw,1490,chan2_raw,1504,chan3_raw,995,chan4_raw,1593,chan5_raw,1146,chan6_raw,992,chan7_raw,2017,chan8_raw,1504,chan9_raw,0,chan10_raw,0,chan11_raw,0,chan12_raw,0,chan13_raw,0,chan14_raw,0,chan15_raw,0,chan16_raw,0,chan17_raw,0,chan18_raw,0,chancount,8,rssi,0,,sig ,Len,50
2018-07-12T12:59:47.507,FE,14, 0, 0, 0, 1, 1,    4A,mavlink_vfr_hud_t,airspeed,0,groundspeed,0.050805,alt,0.46,climb,0.22,heading,89,throttle,0,,sig ,Len,28
2018-07-12T12:59:47.507,FE,1C, 0, 0, 1, 1, 1,    1E,mavlink_attitude_t,time_boot_ms,35687,roll,0.05278078,pitch,-0.02031131,yaw,1.567421,rollspeed,-0.002391103,pitchspeed,-0.001638264,yawspeed,0.001007568,,sig ,Len,36
2018-07-12T12:59:47.523,FE,18, 0, 0, 2, 1, 1,    B2,mavlink_ahrs2_t,roll,0.04929158,pitch,-0.02208112,yaw,1.57418,altitude,0,lat,0,lng,0,,sig ,Len,32
2018-07-12T12:59:47.538,FE,28, 0, 0, 3, 1, 1,    B6,mavlink_ahrs3_t,roll,0.05278078,pitch,-0.02031131,yaw,1.567421,altitude,0,lat,0,lng,0,v1,0,v2,0,v3,0,v4,0,,sig ,Len,48
2018-07-12T12:59:47.581,FE,1A, 0, 0, 4, 1, 1,    1B,mavlink_raw_imu_t,time_usec,35887421,xacc,-20,yacc,-58,zacc,-945,xgyro,-2,ygyro,0,zgyro,1,xmag,2,ymag,-184,zmag,205,,sig ,Len,34
2018-07-12T12:59:47.581,FE,16, 0, 0, 5, 1, 1,    74,mavlink_scaled_imu2_t,time_boot_ms,35887,xacc,12,yacc,28,zacc,-860,xgyro,-5,ygyro,0,zgyro,2,xmag,-176,ymag,-236,zmag,318,,sig ,Len,30
2018-07-12T12:59:47.581,FE, E, 0, 0, 6, 1, 1,    1D,mavlink_scaled_pressure_t,time_boot_ms,35887,press_abs,985.5109,press_diff,0.00625,temperature,3068,,sig ,Len,22
2018-07-12T12:59:47.596,FE,1F, 0, 0, 7, 1, 1,     1,mavlink_sys_status_t,onboard_control_sensors_present,23199087,onboard_control_sensors_enabled,56728943,onboard_control_sensors_health,23198767,load,378,voltage_battery,0,current_battery,-1,drop_rate_comm,0,errors_comm,0,errors_count1,0,errors_count2,0,errors_count3,0,errors_count4,0,battery_remaining,255,,sig ,Len,39
2018-07-12T12:59:47.622,FE, 6, 0, 0, 8, 1, 1,    7D,mavlink_power_status_t,Vcc,5046,Vservo,24,flags,1,,sig ,Len,14
2018-07-12T12:59:47.622,FE, 4, 0, 0, 9, 1, 1,    98,mavlink_meminfo_t,brkval,0,freemem,43712,freemem32,0,,sig ,Len,12
2018-07-12T12:59:47.622,FE, 2, 0, 0, A, 1, 1,    2A,mavlink_mission_current_t,seq,0,,sig ,Len,10
2018-07-12T12:59:47.622,FE,1E, 0, 0, B, 1, 1,    18,mavlink_gps_raw_int_t,time_usec,0,lat,0,lon,0,alt,-17000,eph,9999,epv,9999,vel,0,cog,0,fix_type,1,satellites_visible,0,alt_ellipsoid,0,h_acc,0,v_acc,0,vel_acc,0,hdg_acc,0,,sig ,Len,38
2018-07-12T12:59:47.638,FE,1A, 0, 0, C, 1, 1,    3E,mavlink_nav_controller_output_t,nav_roll,3.023282,nav_pitch,-1.166417,alt_error,-0.4815879,aspd_error,0,xtrack_error,0,nav_bearing,89,target_bearing,0,wp_dist,0,,sig ,Len,34
2018-07-12T12:59:47.782,FE,1C, 0, 0, D, 1, 1,    A3,mavlink_ahrs_t,omegaIx,0.001205471,omegaIy,0.0005900186,omegaIz,-0.0009368305,accel_weight,0,renorm_val,0,error_rp,0.009345331,error_yaw,0.005326222,,sig ,Len,36
2018-07-12T12:59:47.782,FE, 3, 0, 0, E, 1, 1,    A5,mavlink_hwstatus_t,Vcc,5046,I2Cerr,0,,sig ,Len,11
2018-07-12T12:59:47.782,FE, C, 0, 0, F, 1, 1,     2,mavlink_system_time_t,time_unix_usec,315964817707000,time_boot_ms,35887,,sig ,Len,20
2018-07-12T12:59:47.782,FE,16, 0, 0,10, 1, 1,    C1,mavlink_ekf_status_report_t,velocity_variance,0,pos_horiz_variance,0.009287264,pos_vert_variance,0.02776866,compass_variance,0.0006887809,terrain_alt_variance,0.04664795,flags,229,,sig ,Len,30
2018-07-12T12:59:47.798,FE,20, 0, 0,11, 1, 1,    F1,mavlink_vibration_t,time_usec,35887994,vibration_x,0.02518758,vibration_y,0.03635384,vibration_z,0.04206434,clipping_0,0,clipping_1,0,clipping_2,0,,sig ,Len,40
2018-07-12T12:59:47.814,FE,14, 0, 0,12, 1, 1,    4A,mavlink_vfr_hud_t,airspeed,0,groundspeed,0.05053527,alt,0.48,climb,0.23,heading,89,throttle,0,,sig ,Len,28
2018-07-12T12:59:47.814,FE,1C, 0, 0,13, 1, 1,    1E,mavlink_attitude_t,time_boot_ms,35967,roll,0.05277637,pitch,-0.02036772,yaw,1.567451,rollspeed,-0.002020878,pitchspeed,-0.001226698,yawspeed,0.0008101318,,sig ,Len,36
2018-07-12T12:59:47.844,FE,18, 0, 0,14, 1, 1,    B2,mavlink_ahrs2_t,roll,0.04902361,pitch,-0.0221085,yaw,1.574487,altitude,0,lat,0,lng,0,,sig ,Len,32
2018-07-12T12:59:47.844,FE,28, 0, 0,15, 1, 1,    B6,mavlink_ahrs3_t,roll,0.05277637,pitch,-0.02036772,yaw,1.567451,altitude,0,lat,0,lng,0,v1,0,v2,0,v3,0,v4,0,,sig ,Len,48
2018-07-12T12:59:47.844,FE, 9, 0, 0,16, 1, 1,     0,mavlink_heartbeat_t,custom_mode,0,type,2,autopilot,3,base_mode,81,system_status,3,mavlink_version,3,,sig ,Len,17
2018-07-12T12:59:47.844,FE, 2, 0, 0,2D,FF,BE,    B7,mavlink_autopilot_version_request_t,target_system,1,target_component,1,,sig ,Len,10
2018-07-12T12:59:47.890,FE,1C, 0, 0,17, 1, 1,    21,mavlink_global_position_int_t,time_boot_ms,36187,lat,0,lon,0,alt,490,relative_alt,490,vx,4,vy,2,vz,23,hdg,8981,,sig ,Len,36
2018-07-12T12:59:47.890,FE,15, 0, 0,18, 1, 1,    24,mavlink_servo_output_raw_t,time_usec,36187479,servo1_raw,1100,servo2_raw,1100,servo3_raw,1100,servo4_raw,1100,servo5_raw,0,servo6_raw,0,servo7_raw,0,servo8_raw,0,port,0,servo9_raw,0,servo10_raw,0,servo11_raw,0,servo12_raw,0,servo13_raw,0,servo14_raw,0,servo15_raw,0,servo16_raw,0,,sig ,Len,29
2018-07-12T12:59:47.985,FE,16, 0, 0,19, 1, 1,    23,mavlink_rc_channels_raw_t,time_boot_ms,36187,chan1_raw,1490,chan2_raw,1504,chan3_raw,995,chan4_raw,1596,chan5_raw,1146,chan6_raw,992,chan7_raw,2017,chan8_raw,1503,port,0,rssi,0,,sig ,Len,30
2018-07-12T12:59:48.001,FE,2A, 0, 0,1A, 1, 1,    41,mavlink_rc_channels_t,time_boot_ms,36187,chan1_raw,1490,chan2_raw,1504,chan3_raw,995,chan4_raw,1596,chan5_raw,1146,chan6_raw,992,chan7_raw,2017,chan8_raw,1503,chan9_raw,0,chan10_raw,0,chan11_raw,0,chan12_raw,0,chan13_raw,0,chan14_raw,0,chan15_raw,0,chan16_raw,0,chan17_raw,0,chan18_raw,0,chancount,8,rssi,0,,sig ,Len,50
2018-07-12T12:59:48.096,FE,14, 0, 0,1B, 1, 1,    4A,mavlink_vfr_hud_t,airspeed,0,groundspeed,0.0489076,alt,0.49,climb,0.23,heading,89,throttle,0,,sig ,Len,28
2018-07-12T12:59:48.099,FE, 9, 0, 0,2E,FF,BE,     0,mavlink_heartbeat_t,custom_mode,0,type,6,autopilot,8,base_mode,0,system_status,0,mavlink_version,3,,sig ,Len,17
2018-07-12T12:59:48.225,FE,1C, 0, 0,1C, 1, 1,    1E,mavlink_attitude_t,time_boot_ms,36247,roll,0.05274933,pitch,-0.02035978,yaw,1.567605,rollspeed,-0.002294553,pitchspeed,0.0001815546,yawspeed,0.001771929,,sig ,Len,36
2018-07-12T12:59:48.225,FE,18, 0, 0,1D, 1, 1,    B2,mavlink_ahrs2_t,roll,0.04883184,pitch,-0.02213886,yaw,1.574531,altitude,0,lat,0,lng,0,,sig ,Len,32
2018-07-12T12:59:48.225,FE, 2, 0, 0,2F,FF,BE,    B7,mavlink_autopilot_version_request_t,target_system,1,target_component,1,,sig ,Len,10
2018-07-12T12:59:48.261,FE,28, 0, 0,1E, 1, 1,    B6,mavlink_ahrs3_t,roll,0.05274933,pitch,-0.02035978,yaw,1.567605,altitude,0,lat,0,lng,0,v1,0,v2,0,v3,0,v4,0,,sig ,Len,48
2018-07-12T12:59:48.287,FE,1A, 0, 0,1F, 1, 1,    1B,mavlink_raw_imu_t,time_usec,36427502,xacc,-19,yacc,-55,zacc,-948,xgyro,-2,ygyro,0,zgyro,1,xmag,5,ymag,-185,zmag,203,,sig ,Len,34
2018-07-12T12:59:48.287,FE,16, 0, 0,20, 1, 1,    74,mavlink_scaled_imu2_t,time_boot_ms,36427,xacc,-2,yacc,40,zacc,-861,xgyro,-7,ygyro,-3,zgyro,5,xmag,-179,ymag,-221,zmag,322,,sig ,Len,30
2018-07-12T12:59:48.287,FE, E, 0, 0,21, 1, 1,    1D,mavlink_scaled_pressure_t,time_boot_ms,36427,press_abs,985.4982,press_diff,-0.006484375,temperature,3073,,sig ,Len,22
2018-07-12T12:59:48.293,FE,1F, 0, 0,22, 1, 1,     1,mavlink_sys_status_t,onboard_control_sensors_present,23199087,onboard_control_sensors_enabled,56728943,onboard_control_sensors_health,23198767,load,378,voltage_battery,0,current_battery,-1,drop_rate_comm,0,errors_comm,0,errors_count1,0,errors_count2,0,errors_count3,0,errors_count4,0,battery_remaining,255,,sig ,Len,39
2018-07-12T12:59:48.308,FE, 6, 0, 0,23, 1, 1,    7D,mavlink_power_status_t,Vcc,5070,Vservo,26,flags,1,,sig ,Len,14
2018-07-12T12:59:48.308,FE, 4, 0, 0,24, 1, 1,    98,mavlink_meminfo_t,brkval,0,freemem,43712,freemem32,0,,sig ,Len,12
2018-07-12T12:59:48.308,FE, 2, 0, 0,25, 1, 1,    2A,mavlink_mission_current_t,seq,0,,sig ,Len,10
2018-07-12T12:59:48.324,FE, 9, 0, 0,E3,33,44,    A6,mavlink_radio_t,rxerrors,915,fixed,666,rssi,174,remrssi,176,txbuf,100,noise,37,remnoise,30,,sig ,Len,17
2018-07-12T12:59:48.324,FE, 9, 0, 0,E3,33,44,    6D,mavlink_radio_status_t,rxerrors,915,fixed,666,rssi,174,remrssi,176,txbuf,100,noise,37,remnoise,30,,sig ,Len,17
2018-07-12T12:59:48.374,FE,1E, 0, 0,26, 1, 1,    18,mavlink_gps_raw_int_t,time_usec,0,lat,0,lon,0,alt,-17000,eph,9999,epv,9999,vel,0,cog,0,fix_type,1,satellites_visible,0,alt_ellipsoid,0,h_acc,0,v_acc,0,vel_acc,0,hdg_acc,0,,sig ,Len,38
2018-07-12T12:59:48.401,FE,1A, 0, 0,27, 1, 1,    3E,mavlink_nav_controller_output_t,nav_roll,3.018924,nav_pitch,-1.165694,alt_error,-0.5015796,aspd_error,0,xtrack_error,0,nav_bearing,89,target_bearing,0,wp_dist,0,,sig ,Len,34
2018-07-12T12:59:48.401,FE,1C, 0, 0,28, 1, 1,    A3,mavlink_ahrs_t,omegaIx,0.001225943,omegaIy,0.0005999467,omegaIz,-0.000916476,accel_weight,0,renorm_val,0,error_rp,0.009546642,error_yaw,0.005699921,,sig ,Len,36
2018-07-12T12:59:48.427,FE, 3, 0, 0,29, 1, 1,    A5,mavlink_hwstatus_t,Vcc,5070,I2Cerr,0,,sig ,Len,11
2018-07-12T12:59:48.427,FE, C, 0, 0,2A, 1, 1,     2,mavlink_system_time_t,time_unix_usec,315964818248000,time_boot_ms,36428,,sig ,Len,20
2018-07-12T12:59:48.427,FE,16, 0, 0,2B, 1, 1,    C1,mavlink_ekf_status_report_t,velocity_variance,0,pos_horiz_variance,0.009241789,pos_vert_variance,0.04078522,compass_variance,0.007172299,terrain_alt_variance,0.0489309,flags,229,,sig ,Len,30
2018-07-12T12:59:48.427,FE,20, 0, 0,2C, 1, 1,    F1,mavlink_vibration_t,time_usec,36428132,vibration_x,0.02669555,vibration_y,0.05100168,vibration_z,0.03820425,clipping_0,0,clipping_1,0,clipping_2,0,,sig ,Len,40
2018-07-12T12:59:48.427,FE, 2, 0, 0,30,FF,BE,    B7,mavlink_autopilot_version_request_t,target_system,1,target_component,1,,sig ,Len,10
2018-07-12T12:59:48.471,FE,14, 0, 0,2D, 1, 1,    4A,mavlink_vfr_hud_t,airspeed,0,groundspeed,0.04953356,alt,0.5,climb,0.23,heading,89,throttle,0,,sig ,Len,28
2018-07-12T12:59:48.471,FE,1C, 0, 0,2E, 1, 1,    1E,mavlink_attitude_t,time_boot_ms,36527,roll,0.052696,pitch,-0.02034278,yaw,1.567665,rollspeed,-0.002239505,pitchspeed,0.0001919899,yawspeed,0.0008467793,,sig ,Len,36
2018-07-12T12:59:48.471,FE,18, 0, 0,2F, 1, 1,    B2,mavlink_ahrs2_t,roll,0.04855971,pitch,-0.02226223,yaw,1.574659,altitude,0,lat,0,lng,0,,sig ,Len,32
2018-07-12T12:59:48.514,FE,28, 0, 0,30, 1, 1,    B6,mavlink_ahrs3_t,roll,0.052696,pitch,-0.02034278,yaw,1.567665,altitude,0,lat,0,lng,0,v1,0,v2,0,v3,0,v4,0,,sig ,Len,48
2018-07-12T12:59:48.514,FE,3C, 0, 0,31, 1, 1,    94,mavlink_autopilot_version_t,capabilities,7119,uid,0,flight_sw_version,50660863,middleware_sw_version,0,os_sw_version,0,board_version,0,vendor_id,0,product_id,0,flight_custom_version,27229c83,middleware_custom_version,0384802e,os_custom_version,1bcae90b,uid2,,,sig ,Len,68
2018-07-12T12:59:48.541,FE,1C, 0, 0,32, 1, 1,    21,mavlink_global_position_int_t,time_boot_ms,36727,lat,0,lon,0,alt,500,relative_alt,500,vx,4,vy,2,vz,23,hdg,8982,,sig ,Len,36
2018-07-12T12:59:48.541,FE,15, 0, 0,33, 1, 1,    24,mavlink_servo_output_raw_t,time_usec,36727448,servo1_raw,1100,servo2_raw,1100,servo3_raw,1100,servo4_raw,1100,servo5_raw,0,servo6_raw,0,servo7_raw,0,servo8_raw,0,port,0,servo9_raw,0,servo10_raw,0,servo11_raw,0,servo12_raw,0,servo13_raw,0,servo14_raw,0,servo15_raw,0,servo16_raw,0,,sig ,Len,29
2018-07-12T12:59:48.541,FE,16, 0, 0,34, 1, 1,    23,mavlink_rc_channels_raw_t,time_boot_ms,36727,chan1_raw,1489,chan2_raw,1504,chan3_raw,995,chan4_raw,1596,chan5_raw,1147,chan6_raw,992,chan7_raw,2016,chan8_raw,1504,port,0,rssi,0,,sig ,Len,30
2018-07-12T12:59:48.588,FE,2A, 0, 0,35, 1, 1,    41,mavlink_rc_channels_t,time_boot_ms,36727,chan1_raw,1489,chan2_raw,1504,chan3_raw,995,chan4_raw,1596,chan5_raw,1147,chan6_raw,992,chan7_raw,2016,chan8_raw,1504,chan9_raw,0,chan10_raw,0,chan11_raw,0,chan12_raw,0,chan13_raw,0,chan14_raw,0,chan15_raw,0,chan16_raw,0,chan17_raw,0,chan18_raw,0,chancount,8,rssi,0,,sig ,Len,50
2018-07-12T12:59:48.617,FE,14, 0, 0,36, 1, 1,    4A,mavlink_vfr_hud_t,airspeed,0,groundspeed,0.0500107,alt,0.5,climb,0.23,heading,89,throttle,0,,sig ,Len,28
2018-07-12T12:59:48.644,FE,1C, 0, 0,37, 1, 1,    1E,mavlink_attitude_t,time_boot_ms,36807,roll,0.05261816,pitch,-0.02032136,yaw,1.567692,rollspeed,-0.002381955,pitchspeed,-0.001564789,yawspeed,0.001704696,,sig ,Len,36
2018-07-12T12:59:48.644,FE,18, 0, 0,38, 1, 1,    B2,mavlink_ahrs2_t,roll,0.0484645,pitch,-0.02204091,yaw,1.574462,altitude,0,lat,0,lng,0,,sig ,Len,32
2018-07-12T12:59:48.644,FE,28, 0, 0,39, 1, 1,    B6,mavlink_ahrs3_t,roll,0.05261816,pitch,-0.02032136,yaw,1.567692,altitude,0,lat,0,lng,0,v1,0,v2,0,v3,0,v4,0,,sig ,Len,48
2018-07-12T12:59:48.644,FE, 2, 0, 0,31,FF,BE,    B7,mavlink_autopilot_version_request_t,target_system,1,target_component,1,,sig ,Len,10
2018-07-12T12:59:48.692,FE,3C, 0, 0,3A, 1, 1,    94,mavlink_autopilot_version_t,capabilities,7119,uid,0,flight_sw_version,50660863,middleware_sw_version,0,os_sw_version,0,board_version,0,vendor_id,0,product_id,0,flight_custom_version,27229c83,middleware_custom_version,0384802e,os_custom_version,1bcae90b,uid2,,,sig ,Len,68
2018-07-12T12:59:48.734,FE,1A, 0, 0,3B, 1, 1,    1B,mavlink_raw_imu_t,time_usec,36967504,xacc,-17,yacc,-55,zacc,-951,xgyro,-2,ygyro,-1,zgyro,0,xmag,4,ymag,-183,zmag,206,,sig ,Len,34
2018-07-12T12:59:48.734,FE,16, 0, 0,3C, 1, 1,    74,mavlink_scaled_imu2_t,time_boot_ms,36967,xacc,8,yacc,45,zacc,-868,xgyro,-3,ygyro,1,zgyro,1,xmag,-176,ymag,-236,zmag,317,,sig ,Len,30
2018-07-12T12:59:48.734,FE, E, 0, 0,3D, 1, 1,    1D,mavlink_scaled_pressure_t,time_boot_ms,36967,press_abs,985.4917,press_diff,-0.01296875,temperature,3077,,sig ,Len,22
2018-07-12T12:59:48.750,FE,1F, 0, 0,3E, 1, 1,     1,mavlink_sys_status_t,onboard_control_sensors_present,23199087,onboard_control_sensors_enabled,56728943,onboard_control_sensors_health,23198767,load,368,voltage_battery,0,current_battery,-1,drop_rate_comm,0,errors_comm,0,errors_count1,0,errors_count2,0,errors_count3,0,errors_count4,0,battery_remaining,255,,sig ,Len,39
2018-07-12T12:59:48.778,FE, 6, 0, 0,3F, 1, 1,    7D,mavlink_power_status_t,Vcc,4970,Vservo,26,flags,1,,sig ,Len,14
2018-07-12T12:59:48.778,FE, 4, 0, 0,40, 1, 1,    98,mavlink_meminfo_t,brkval,0,freemem,43712,freemem32,0,,sig ,Len,12
2018-07-12T12:59:48.778,FE, 2, 0, 0,41, 1, 1,    2A,mavlink_mission_current_t,seq,0,,sig ,Len,10
2018-07-12T12:59:48.778,FE,1E, 0, 0,42, 1, 1,    18,mavlink_gps_raw_int_t,time_usec,0,lat,0,lon,0,alt,-17000,eph,9999,epv,9999,vel,0,cog,0,fix_type,1,satellites_visible,0,alt_ellipsoid,0,h_acc,0,v_acc,0,vel_acc,0,hdg_acc,0,,sig ,Len,38
2018-07-12T12:59:48.809,FE,1A, 0, 0,43, 1, 1,    3E,mavlink_nav_controller_output_t,nav_roll,3.013612,nav_pitch,-1.163764,alt_error,-0.5161771,aspd_error,0,xtrack_error,0,nav_bearing,89,target_bearing,0,wp_dist,0,,sig ,Len,34
2018-07-12T12:59:48.817,FE, 2, 0, 0,32,FF,BE,    15,mavlink_param_request_list_t,target_system,1,target_component,1,,sig ,Len,10
2018-07-12T12:59:48.842,FE,1C, 0, 0,44, 1, 1,    A3,mavlink_ahrs_t,omegaIx,0.001243006,omegaIy,0.000607309,omegaIz,-0.0009261214,accel_weight,0,renorm_val,0,error_rp,0.01007349,error_yaw,0.005447853,,sig ,Len,36
2018-07-12T12:59:48.842,FE, 3, 0, 0,45, 1, 1,    A5,mavlink_hwstatus_t,Vcc,4970,I2Cerr,0,,sig ,Len,11
2018-07-12T12:59:48.858,FE, C, 0, 0,46, 1, 1,     2,mavlink_system_time_t,time_unix_usec,315964818788000,time_boot_ms,36968,,sig ,Len,20
2018-07-12T12:59:48.858,FE,16, 0, 0,47, 1, 1,    C1,mavlink_ekf_status_report_t,velocity_variance,0,pos_horiz_variance,0.009155666,pos_vert_variance,0.01990365,compass_variance,0.007033865,terrain_alt_variance,0.04866111,flags,229,,sig ,Len,30
2018-07-12T12:59:48.884,FE,20, 0, 0,48, 1, 1,    F1,mavlink_vibration_t,time_usec,36968143,vibration_x,0.03192751,vibration_y,0.03233258,vibration_z,0.04290577,clipping_0,0,clipping_1,0,clipping_2,0,,sig ,Len,40
2018-07-12T12:59:48.884,FE, 9, 0, 0,49, 1, 1,     0,mavlink_heartbeat_t,custom_mode,0,type,2,autopilot,3,base_mode,81,system_status,3,mavlink_version,3,,sig ,Len,17
2018-07-12T12:59:48.884,FE,14, 0, 0,4A, 1, 1,    4A,mavlink_vfr_hud_t,airspeed,0,groundspeed,0.05047859,alt,0.52,climb,0.23,heading,89,throttle,0,,sig ,Len,28
2018-07-12T12:59:48.927,FE,1C, 0, 0,4B, 1, 1,    1E,mavlink_attitude_t,time_boot_ms,37087,roll,0.0525656,pitch,-0.02029223,yaw,1.567604,rollspeed,-0.001904726,pitchspeed,-0.001577522,yawspeed,0.0005318094,,sig ,Len,36
2018-07-12T12:59:48.927,FE,18, 0, 0,4C, 1, 1,    B2,mavlink_ahrs2_t,roll,0.04825711,pitch,-0.021973,yaw,1.574615,altitude,0,lat,0,lng,0,,sig ,Len,32
2018-07-12T12:59:49.024,FE, 9, 0, 0,33,FF,BE,     0,mavlink_heartbeat_t,custom_mode,0,type,6,autopilot,8,base_mode,0,system_status,0,mavlink_version,3,,sig ,Len,17
2018-07-12T12:59:49.039,FE,28, 0, 0,4D, 1, 1,    B6,mavlink_ahrs3_t,roll,0.0525656,pitch,-0.02029223,yaw,1.567604,altitude,0,lat,0,lng,0,v1,0,v2,0,v3,0,v4,0,,sig ,Len,48
2018-07-12T12:59:49.150,FE,3C, 0, 0,4E, 1, 1,    94,mavlink_autopilot_version_t,capabilities,7119,uid,0,flight_sw_version,50660863,middleware_sw_version,0,os_sw_version,0,board_version,0,vendor_id,0,product_id,0,flight_custom_version,27229c83,middleware_custom_version,0384802e,os_custom_version,1bcae90b,uid2,,,sig ,Len,68
2018-07-12T12:59:49.198,FE,1C, 0, 0,4F, 1, 1,    21,mavlink_global_position_int_t,time_boot_ms,37267,lat,0,lon,0,alt,530,relative_alt,530,vx,4,vy,2,vz,23,hdg,8981,,sig ,Len,36
2018-07-12T12:59:49.198,FE,15, 0, 0,50, 1, 1,    24,mavlink_servo_output_raw_t,time_usec,37267444,servo1_raw,1100,servo2_raw,1100,servo3_raw,1100,servo4_raw,1100,servo5_raw,0,servo6_raw,0,servo7_raw,0,servo8_raw,0,port,0,servo9_raw,0,servo10_raw,0,servo11_raw,0,servo12_raw,0,servo13_raw,0,servo14_raw,0,servo15_raw,0,servo16_raw,0,,sig ,Len,29
2018-07-12T12:59:49.198,FE,16, 0, 0,51, 1, 1,    23,mavlink_rc_channels_raw_t,time_boot_ms,37267,chan1_raw,1490,chan2_raw,1504,chan3_raw,995,chan4_raw,1596,chan5_raw,1146,chan6_raw,992,chan7_raw,2017,chan8_raw,1503,port,0,rssi,0,,sig ,Len,30
2018-07-12T12:59:49.240,FE,2A, 0, 0,52, 1, 1,    41,mavlink_rc_channels_t,time_boot_ms,37267,chan1_raw,1490,chan2_raw,1504,chan3_raw,995,chan4_raw,1596,chan5_raw,1146,chan6_raw,992,chan7_raw,2017,chan8_raw,1503,chan9_raw,0,chan10_raw,0,chan11_raw,0,chan12_raw,0,chan13_raw,0,chan14_raw,0,chan15_raw,0,chan16_raw,0,chan17_raw,0,chan18_raw,0,chancount,8,rssi,0,,sig ,Len,50
2018-07-12T12:59:49.240,FE,14, 0, 0,53, 1, 1,    4A,mavlink_vfr_hud_t,airspeed,0,groundspeed,0.05201394,alt,0.53,climb,0.23,heading,89,throttle,0,,sig ,Len,28
2018-07-12T12:59:49.240,FE,1C, 0, 0,54, 1, 1,    1E,mavlink_attitude_t,time_boot_ms,37367,roll,0.052572,pitch,-0.0203032,yaw,1.567582,rollspeed,-0.002557125,pitchspeed,-0.0005592679,yawspeed,0.001310182,,sig ,Len,36
2018-07-12T12:59:49.240,FE, 9, 0, 0,E4,33,44,    A6,mavlink_radio_t,rxerrors,915,fixed,666,rssi,174,remrssi,176,txbuf,100,noise,39,remnoise,34,,sig ,Len,17
2018-07-12T12:59:49.240,FE, 9, 0, 0,E4,33,44,    6D,mavlink_radio_status_t,rxerrors,915,fixed,666,rssi,174,remrssi,176,txbuf,100,noise,39,remnoise,34,,sig ,Len,17
2018-07-12T12:59:49.272,FE,18, 0, 0,55, 1, 1,    B2,mavlink_ahrs2_t,roll,0.04803204,pitch,-0.02213973,yaw,1.574539,altitude,0,lat,0,lng,0,,sig ,Len,32
2018-07-12T12:59:49.324,FE,28, 0, 0,56, 1, 1,    B6,mavlink_ahrs3_t,roll,0.052572,pitch,-0.0203032,yaw,1.567582,altitude,0,lat,0,lng,0,v1,0,v2,0,v3,0,v4,0,,sig ,Len,48
2018-07-12T12:59:49.324,FE,3C, 0, 0,57, 1, 1,    94,mavlink_autopilot_version_t,capabilities,7119,uid,0,flight_sw_version,50660863,middleware_sw_version,0,os_sw_version,0,board_version,0,vendor_id,0,product_id,0,flight_custom_version,27229c83,middleware_custom_version,0384802e,os_custom_version,1bcae90b,uid2,,,sig ,Len,68
2018-07-12T12:59:49.350,FE,1A, 0, 0,58, 1, 1,    1B,mavlink_raw_imu_t,time_usec,37507463,xacc,-19,yacc,-54,zacc,-952,xgyro,-1,ygyro,-1,zgyro,0,xmag,6,ymag,-184,zmag,205,,sig ,Len,34
2018-07-12T12:59:49.350,FE,16, 0, 0,59, 1, 1,    74,mavlink_scaled_imu2_t,time_boot_ms,37507,xacc,0,yacc,30,zacc,-870,xgyro,-3,ygyro,-2,zgyro,-2,xmag,-179,ymag,-220,zmag,322,,sig ,Len,30
2018-07-12T12:59:49.382,FE, E, 0, 0,5A, 1, 1,    1D,mavlink_scaled_pressure_t,time_boot_ms,37507,press_abs,985.5143,press_diff,0.0096875,temperature,3082,,sig ,Len,22
2018-07-12T12:59:49.382,FE,1F, 0, 0,5B, 1, 1,     1,mavlink_sys_status_t,onboard_control_sensors_present,23199087,onboard_control_sensors_enabled,56728943,onboard_control_sensors_health,23198767,load,395,voltage_battery,0,current_battery,-1,drop_rate_comm,0,errors_comm,0,errors_count1,0,errors_count2,0,errors_count3,0,errors_count4,0,battery_remaining,255,,sig ,Len,39
2018-07-12T12:59:49.398,FE, 6, 0, 0,5C, 1, 1,    7D,mavlink_power_status_t,Vcc,4985,Vservo,26,flags,1,,sig ,Len,14
2018-07-12T12:59:49.398,FE, 4, 0, 0,5D, 1, 1,    98,mavlink_meminfo_t,brkval,0,freemem,43712,freemem32,0,,sig ,Len,12
2018-07-12T12:59:49.398,FE, 2, 0, 0,5E, 1, 1,    2A,mavlink_mission_current_t,seq,0,,sig ,Len,10
2018-07-12T12:59:49.414,FE,1E, 0, 0,5F, 1, 1,    18,mavlink_gps_raw_int_t,time_usec,0,lat,0,lon,0,alt,-17000,eph,9999,epv,9999,vel,0,cog,0,fix_type,1,satellites_visible,0,alt_ellipsoid,0,h_acc,0,v_acc,0,vel_acc,0,hdg_acc,0,,sig ,Len,38
2018-07-12T12:59:49.440,FE,1A, 0, 0,60, 1, 1,    3E,mavlink_nav_controller_output_t,nav_roll,3.009948,nav_pitch,-1.163442,alt_error,-0.5435969,aspd_error,0,xtrack_error,0,nav_bearing,89,target_bearing,0,wp_dist,0,,sig ,Len,34
2018-07-12T12:59:49.440,FE,1C, 0, 0,61, 1, 1,    A3,mavlink_ahrs_t,omegaIx,0.001257643,omegaIy,0.0006139436,omegaIz,-0.000922691,accel_weight,0,renorm_val,0,error_rp,0.01042063,error_yaw,0.006605195,,sig ,Len,36
2018-07-12T12:59:49.466,FE, 3, 0, 0,62, 1, 1,    A5,mavlink_hwstatus_t,Vcc,4985,I2Cerr,0,,sig ,Len,11
2018-07-12T12:59:49.466,FE, C, 0, 0,63, 1, 1,     2,mavlink_system_time_t,time_unix_usec,315964819327000,time_boot_ms,37507,,sig ,Len,20
2018-07-12T12:59:49.466,FE,16, 0, 0,64, 1, 1,    C1,mavlink_ekf_status_report_t,velocity_variance,0,pos_horiz_variance,0.009258916,pos_vert_variance,0.03898517,compass_variance,0.005230471,terrain_alt_variance,0.04732088,flags,229,,sig ,Len,30
2018-07-12T12:59:49.466,FE,20, 0, 0,65, 1, 1,    F1,mavlink_vibration_t,time_usec,37508008,vibration_x,0.02688437,vibration_y,0.04213622,vibration_z,0.03356836,clipping_0,0,clipping_1,0,clipping_2,0,,sig ,Len,40
2018-07-12T12:59:49.498,FE,33, 0, 0,66, 1, 1,    FD,mavlink_statustext_t,severity,6,text,APM:Copter V3.5.5 (27229c83),,sig ,Len,59
2018-07-12T12:59:49.610,FE,33, 0, 0,67, 1, 1,    FD,mavlink_statustext_t,severity,6,text,PX4: 0384802e NuttX: 1bcae90b,,sig ,Len,59
2018-07-12T12:59:49.738,FE,33, 0, 0,68, 1, 1,    FD,mavlink_statustext_t,severity,6,text,Frame: QUAD,,sig ,Len,59
2018-07-12T12:59:49.770,FE,33, 0, 0,69, 1, 1,    FD,mavlink_statustext_t,severity,6,text,PX4v2 003E0037 30345111 37383933,,sig ,Len,59
2018-07-12T12:59:49.770,FE,19, 0, 0,6A, 1, 1,    16,mavlink_param_value_t,param_value,120,param_count,773,param_index,0,param_id,SYSID_SW_MREV,param_type,4,,sig ,Len,33
2018-07-12T12:59:49.786,FE,19, 0, 0,6B, 1, 1,    16,mavlink_param_value_t,param_value,10,param_count,773,param_index,1,param_id,SYSID_SW_TYPE,param_type,2,,sig ,Len,33
2018-07-12T12:59:49.812,FE,19, 0, 0,6C, 1, 1,    16,mavlink_param_value_t,param_value,1,param_count,773,param_index,2,param_id,SYSID_THISMAV,param_type,4,,sig ,Len,33
2018-07-12T12:59:49.812,FE,19, 0, 0,6D, 1, 1,    16,mavlink_param_value_t,param_value,255,param_count,773,param_index,3,param_id,SYSID_MYGCS,param_type,4,,sig ,Len,33
2018-07-12T12:59:49.859,FE,19, 0, 0,6E, 1, 1,    16,mavlink_param_value_t,param_value,0,param_count,773,param_index,4,param_id,CLI_ENABLED,param_type,2,,sig ,Len,33
2018-07-12T12:59:49.859,FE,19, 0, 0,6F, 1, 1,    16,mavlink_param_value_t,param_value,0,param_count,773,param_index,5,param_id,PILOT_THR_FILT,param_type,9,,sig ,Len,33
2018-07-12T12:59:49.859,FE,19, 0, 0,70, 1, 1,    16,mavlink_param_value_t,param_value,0,param_count,773,param_index,6,param_id,PILOT_TKOFF_ALT,param_type,9,,sig ,Len,33
2018-07-12T12:59:49.875,FE,19, 0, 0,71, 1, 1,    16,mavlink_param_value_t,param_value,100,param_count,773,param_index,7,param_id,PILOT_TKOFF_DZ,param_type,4,,sig ,Len,33
2018-07-12T12:59:49.892,FE,19, 0, 0,72, 1, 1,    16,mavlink_param_value_t,param_value,0,param_count,773,param_index,8,param_id,PILOT_THR_BHV,param_type,4,,sig ,Len,33
2018-07-12T12:59:49.892,FE,19, 0, 0,73, 1, 1,    16,mavlink_param_value_t,param_value,115,param_count,773,param_index,9,param_id,SERIAL0_BAUD,param_type,6,,sig ,Len,33
2018-07-12T12:59:49.907,FE,19, 0, 0,74, 1, 1,    16,mavlink_param_value_t,param_value,1,param_count,773,param_index,10,param_id,SERIAL0_PROTOCOL,param_type,2,,sig ,Len,33
2018-07-12T12:59:49.924,FE,19, 0, 0,75, 1, 1,    16,mavlink_param_value_t,param_value,1,param_count,773,param_index,11,param_id,SERIAL1_PROTOCOL,param_type,2,,sig ,Len,33
2018-07-12T12:59:49.924,FE,19, 0, 0,76, 1, 1,    16,mavlink_param_value_t,param_value,57,param_count,773,param_index,12,param_id,SERIAL1_BAUD,param_type,6,,sig ,Len,33
2018-07-12T12:59:49.970,FE,19, 0, 0,77, 1, 1,    16,mavlink_param_value_t,param_value,1,param_count,773,param_index,13,param_id,SERIAL2_PROTOCOL,param_type,2,,sig ,Len,33
2018-07-12T12:59:49.970,FE,19, 0, 0,78, 1, 1,    16,mavlink_param_value_t,param_value,57,param_count,773,param_index,14,param_id,SERIAL2_BAUD,param_type,6,,sig ,Len,33
2018-07-12T12:59:50.053,FE, 9, 0, 0,34,FF,BE,     0,mavlink_heartbeat_t,custom_mode,0,type,6,autopilot,8,base_mode,0,system_status,0,mavlink_version,3,,sig ,Len,17
2018-07-12T12:59:50.092,FE,19, 0, 0,79, 1, 1,    16,mavlink_param_value_t,param_value,5,param_count,773,param_index,15,param_id,SERIAL3_PROTOCOL,param_type,2,,sig ,Len,33
2018-07-12T12:59:50.092,FE,19, 0, 0,7A, 1, 1,    16,mavlink_param_value_t,param_value,38,param_count,773,param_index,16,param_id,SERIAL3_BAUD,param_type,6,,sig ,Len,33
2018-07-12T12:59:50.092,FE,19, 0, 0,7B, 1, 1,    16,mavlink_param_value_t,param_value,5,param_count,773,param_index,17,param_id,SERIAL4_PROTOCOL,param_type,2,,sig ,Len,33
2018-07-12T12:59:50.108,FE,19, 0, 0,7C, 1, 1,    16,mavlink_param_value_t,param_value,38,param_count,773,param_index,18,param_id,SERIAL4_BAUD,param_type,6,,sig ,Len,33
2018-07-12T12:59:50.124,FE,19, 0, 0,7D, 1, 1,    16,mavlink_param_value_t,param_value,-1,param_count,773,param_index,19,param_id,SERIAL5_PROTOCOL,param_type,2,,sig ,Len,33
2018-07-12T12:59:50.124,FE,19, 0, 0,7E, 1, 1,    16,mavlink_param_value_t,param_value,57,param_count,773,param_index,20,param_id,SERIAL5_BAUD,param_type,6,,sig ,Len,33
2018-07-12T12:59:50.154,FE,14, 0, 0,7F, 1, 1,    4A,mavlink_vfr_hud_t,airspeed,0,groundspeed,0.05191248,alt,0.54,climb,0.23,heading,89,throttle,0,,sig ,Len,28
2018-07-12T12:59:50.154,FE,1C, 0, 0,80, 1, 1,    1E,mavlink_attitude_t,time_boot_ms,37647,roll,0.05257385,pitch,-0.02032235,yaw,1.567507,rollspeed,-0.00133176,pitchspeed,-0.0007007763,yawspeed,0.0003148982,,sig ,Len,36
2018-07-12T12:59:50.154,FE,18, 0, 0,81, 1, 1,    B2,mavlink_ahrs2_t,roll,0.04807813,pitch,-0.02219198,yaw,1.574501,altitude,0,lat,0,lng,0,,sig ,Len,32
2018-07-12T12:59:50.171,FE, 9, 0, 0,E5,33,44,    A6,mavlink_radio_t,rxerrors,915,fixed,666,rssi,174,remrssi,176,txbuf,100,noise,36,remnoise,29,,sig ,Len,17
2018-07-12T12:59:50.171,FE, 9, 0, 0,E5,33,44,    6D,mavlink_radio_status_t,rxerrors,915,fixed,666,rssi,174,remrssi,176,txbuf,100,noise,36,remnoise,29,,sig ,Len,17
2018-07-12T12:59:50.244,FE,28, 0, 0,82, 1, 1,    B6,mavlink_ahrs3_t,roll,0.05257385,pitch,-0.02032235,yaw,1.567507,altitude,0,lat,0,lng,0,v1,0,v2,0,v3,0,v4,0,,sig ,Len,48
2018-07-12T12:59:50.244,FE,19, 0, 0,83, 1, 1,    16,mavlink_param_value_t,param_value,0,param_count,773,param_index,21,param_id,TELEM_DELAY,param_type,2,,sig ,Len,33
2018-07-12T12:59:50.244,FE,19, 0, 0,84, 1, 1,    16,mavlink_param_value_t,param_value,0,param_count,773,param_index,22,param_id,GCS_PID_MASK,param_type,4,,sig ,Len,33
2018-07-12T12:59:50.254,FE,19, 0, 0,85, 1, 1,    16,mavlink_param_value_t,param_value,1500,param_count,773,param_index,23,param_id,RTL_ALT,param_type,4,,sig ,Len,33
2018-07-12T12:59:50.280,FE,19, 0, 0,86, 1, 1,    16,mavlink_param_value_t,param_value,3,param_count,773,param_index,24,param_id,RTL_CONE_SLOPE,param_type,9,,sig ,Len,33
2018-07-12T12:59:50.280,FE,19, 0, 0,87, 1, 1,    16,mavlink_param_value_t,param_value,0,param_count,773,param_index,25,param_id,RTL_SPEED,param_type,4,,sig ,Len,33
2018-07-12T12:59:50.324,FE,19, 0, 0,88, 1, 1,    16,mavlink_param_value_t,param_value,0.8,param_count,773,param_index,26,param_id,RNGFND_GAIN,param_type,9,,sig ,Len,33
2018-07-12T12:59:50.324,FE,19, 0, 0,89, 1, 1,    16,mavlink_param_value_t,param_value,0,param_count,773,param_index,27,param_id,FS_BATT_ENABLE,param_type,2,,sig ,Len,33
2018-07-12T12:59:50.324,FE,19, 0, 0,8A, 1, 1,    16,mavlink_param_value_t,param_value,10.5,param_count,773,param_index,28,param_id,FS_BATT_VOLTAGE,param_type,9,,sig ,Len,33
2018-07-12T12:59:50.354,FE,19, 0, 0,8B, 1, 1,    16,mavlink_param_value_t,param_value,0,param_count,773,param_index,29,param_id,FS_BATT_MAH,param_type,9,,sig ,Len,33
2018-07-12T12:59:50.354,FE,19, 0, 0,8C, 1, 1,    16,mavlink_param_value_t,param_value,1,param_count,773,param_index,30,param_id,FS_GCS_ENABLE,param_type,2,,sig ,Len,33
2018-07-12T12:59:50.354,FE,19, 0, 0,8D, 1, 1,    16,mavlink_param_value_t,param_value,140,param_count,773,param_index,31,param_id,GPS_HDOP_GOOD,param_type,4,,sig ,Len,33
2018-07-12T12:59:50.385,FE,19, 0, 0,8E, 1, 1,    16,mavlink_param_value_t,param_value,1,param_count,773,param_index,32,param_id,MAG_ENABLE,param_type,2,,sig ,Len,33
2018-07-12T12:59:50.385,FE,19, 0, 0,8F, 1, 1,    16,mavlink_param_value_t,param_value,0,param_count,773,param_index,33,param_id,SUPER_SIMPLE,param_type,2,,sig ,Len,33
2018-07-12T12:59:50.385,FE,19, 0, 0,90, 1, 1,    16,mavlink_param_value_t,param_value,0,param_count,773,param_index,34,param_id,RTL_ALT_FINAL,param_type,4,,sig ,Len,33
2018-07-12T12:59:50.432,FE,19, 0, 0,91, 1, 1,    16,mavlink_param_value_t,param_value,0,param_count,773,param_index,35,param_id,RTL_CLIMB_MIN,param_type,4,,sig ,Len,33
2018-07-12T12:59:50.432,FE,19, 0, 0,92, 1, 1,    16,mavlink_param_value_t,param_value,2,param_count,773,param_index,36,param_id,WP_YAW_BEHAVIOR,param_type,2,,sig ,Len,33
2018-07-12T12:59:50.554,FE,19, 0, 0,93, 1, 1,    16,mavlink_param_value_t,param_value,5000,param_count,773,param_index,37,param_id,RTL_LOIT_TIME,param_type,6,,sig ,Len,33
2018-07-12T12:59:50.554,FE,19, 0, 0,94, 1, 1,    16,mavlink_param_value_t,param_value,50,param_count,773,param_index,38,param_id,LAND_SPEED,param_type,4,,sig ,Len,33
2018-07-12T12:59:50.554,FE,19, 0, 0,95, 1, 1,    16,mavlink_param_value_t,param_value,0,param_count,773,param_index,39,param_id,LAND_SPEED_HIGH,param_type,4,,sig ,Len,33
2018-07-12T12:59:50.570,FE,19, 0, 0,96, 1, 1,    16,mavlink_param_value_t,param_value,250,param_count,773,param_index,40,param_id,PILOT_VELZ_MAX,param_type,4,,sig ,Len,33
2018-07-12T12:59:50.586,FE,19, 0, 0,97, 1, 1,    16,mavlink_param_value_t,param_value,250,param_count,773,param_index,41,param_id,PILOT_ACCEL_Z,param_type,4,,sig ,Len,33
2018-07-12T12:59:50.586,FE,19, 0, 0,98, 1, 1,    16,mavlink_param_value_t,param_value,1,param_count,773,param_index,42,param_id,FS_THR_ENABLE,param_type,2,,sig ,Len,33
2018-07-12T12:59:50.616,FE,19, 0, 0,99, 1, 1,    16,mavlink_param_value_t,param_value,975,param_count,773,param_index,43,param_id,FS_THR_VALUE,param_type,4,,sig ,Len,33
2018-07-12T12:59:50.616,FE,19, 0, 0,9A, 1, 1,    16,mavlink_param_value_t,param_value,100,param_count,773,param_index,44,param_id,THR_DZ,param_type,4,,sig ,Len,33
2018-07-12T12:59:50.616,FE,19, 0, 0,9B, 1, 1,    16,mavlink_param_value_t,param_value,0,param_count,773,param_index,45,param_id,FLTMODE1,param_type,2,,sig ,Len,33
2018-07-12T12:59:50.648,FE,19, 0, 0,9C, 1, 1,    16,mavlink_param_value_t,param_value,0,param_count,773,param_index,46,param_id,FLTMODE2,param_type,2,,sig ,Len,33
2018-07-12T12:59:50.786,FE,19, 0, 0,9D, 1, 1,    16,mavlink_param_value_t,param_value,0,param_count,773,param_index,47,param_id,FLTMODE3,param_type,2,,sig ,Len,33
